[
  {
    "id": "delhi",
    "name": "Delhi",
    "lat": 28.6139,
    "lon": 77.2090,
    "bbox": [28.40, 76.85, 28.85, 77.40]
  },
  {
    "id": "gurugram",
    "name": "Gurugram",
    "lat": 28.4595,
    "lon": 77.0266,
    "bbox": [28.30, 76.85, 28.60, 77.20]
  },
  {
    "id": "ghaziabad",
    "name": "Ghaziabad",
    "lat": 28.6692,
    "lon": 77.4538,
    "bbox": [28.55, 77.30, 28.80, 77.60]
  },
  {
    "id": "jaipur",
    "name": "Jaipur",
    "lat": 26.9124,
    "lon": 75.7873,
    "bbox": [26.75, 75.65, 27.05, 75.95]
  },
  {
    "id": "chandigarh",
    "name": "Chandigarh",
    "lat": 30.7333,
    "lon": 76.7794,
    "bbox": [30.60, 76.65, 30.90, 76.90]
  },
  {
    "id": "lucknow",
    "name": "Lucknow",
    "lat": 26.8467,
    "lon": 80.9462,
    "bbox": [26.70, 80.80, 27.00, 81.10]
  },
  {
    "id": "kanpur",
    "name": "Kanpur",
    "lat": 26.4499,
    "lon": 80.3319,
    "bbox": [26.30, 80.15, 26.60, 80.50]
  },
  {
    "id": "patna",
    "name": "Patna",
    "lat": 25.5941,
    "lon": 85.1376,
    "bbox": [25.45, 85.00, 25.75, 85.30]
  },
  {
    "id": "kolkata",
    "name": "Kolkata",
    "lat": 22.5726,
    "lon": 88.3639,
    "bbox": [22.40, 88.20, 22.75, 88.50]
  },
  {
    "id": "bhopal",
    "name": "Bhopal",
    "lat": 23.2599,
    "lon": 77.4126,
    "bbox": [23.15, 77.30, 23.40, 77.55]
  },
  {
    "id": "indore",
    "name": "Indore",
    "lat": 22.7196,
    "lon": 75.8577,
    "bbox": [22.60, 75.70, 22.85, 76.00]
  },
  {
    "id": "ahmedabad",
    "name": "Ahmedabad",
    "lat": 23.0225,
    "lon": 72.5714,
    "bbox": [22.85, 72.40, 23.20, 72.75]
  },
  {
    "id": "surat",
    "name": "Surat",
    "lat": 21.1702,
    "lon": 72.8311,
    "bbox": [21.05, 72.70, 21.30, 72.95]
  },
  {
    "id": "nagpur",
    "name": "Nagpur",
    "lat": 21.1458,
    "lon": 79.0882,
    "bbox": [21.00, 78.95, 21.30, 79.25]
  },
  {
    "id": "mumbai",
    "name": "Mumbai",
    "lat": 19.0760,
    "lon": 72.8777,
    "bbox": [18.90, 72.75, 19.30, 73.10]
  },
  {
    "id": "pune",
    "name": "Pune",
    "lat": 18.5204,
    "lon": 73.8567,
    "bbox": [18.35, 73.70, 18.70, 74.00]
  },
  {
    "id": "hyderabad",
    "name": "Hyderabad",
    "lat": 17.3850,
    "lon": 78.4867,
    "bbox": [17.20, 78.30, 17.55, 78.65]
  },
  {
    "id": "bengaluru",
    "name": "Bengaluru",
    "lat": 12.9716,
    "lon": 77.5946,
    "bbox": [12.80, 77.45, 13.15, 77.75]
  },
  {
    "id": "chennai",
    "name": "Chennai",
    "lat": 13.0827,
    "lon": 80.2707,
    "bbox": [12.90, 80.10, 13.25, 80.40]
  },
  {
    "id": "coimbatore",
    "name": "Coimbatore",
    "lat": 11.0168,
    "lon": 76.9558,
    "bbox": [10.90, 76.80, 11.15, 77.10]
  }
]
