[
  {
    "id": "delhi",
    "name": "Delhi",
    "lat": 28.6139,
    "lon": 77.2090,
    "bbox": [28.40, 76.85, 28.85, 77.40]
  },
  {
    "id": "mumbai",
    "name": "Mumbai",
    "lat": 19.0760,
    "lon": 72.8777,
    "bbox": [18.90, 72.75, 19.30, 73.10]
  },
  {
    "id": "bengaluru",
    "name": "Bengaluru",
    "lat": 12.9716,
    "lon": 77.5946,
    "bbox": [12.80, 77.45, 13.15, 77.75]
  },
  {
    "id": "chennai",
    "name": "Chennai",
    "lat": 13.0827,
    "lon": 80.2707,
    "bbox": [12.90, 80.10, 13.25, 80.40]
  },
  {
    "id": "kolkata",
    "name": "Kolkata",
    "lat": 22.5726,
    "lon": 88.3639,
    "bbox": [22.40, 88.20, 22.75, 88.50]
  },
  {
    "id": "hyderabad",
    "name": "Hyderabad",
    "lat": 17.3850,
    "lon": 78.4867,
    "bbox": [17.20, 78.30, 17.55, 78.65]
  },
  {
    "id": "pune",
    "name": "Pune",
    "lat": 18.5204,
    "lon": 73.8567,
    "bbox": [18.35, 73.70, 18.70, 74.00]
  },
  {
    "id": "ahmedabad",
    "name": "Ahmedabad",
    "lat": 23.0225,
    "lon": 72.5714,
    "bbox": [22.85, 72.40, 23.20, 72.75]
  }
]
